[
    {
        "lat": 52.228335194897305,
        "lng": 21.024282381375762,
        "name": "Warszawa"
    },
    {
        "lat": 50.07441120406187,
        "lng": 19.918273393012594,
        "name": "Kraków"
    },
    {
        "lat": 51.12409338222792,
        "lng": 17.028842839711565,
        "name": "Wrocław"
    },
    {
        "lat": 53.77693249670846,
        "lng": 20.480296608541163,
        "name": "Olsztyn"
    },
    {
        "lat": 53.42671867480122,
        "lng": 14.536716299792118,
        "name": "Szczecin"
    },
    {
        "lat": 53.130865428178524,
        "lng": 23.16610165182039,
        "name": "Białystok"
    },
    {
        "lat": 50.811012584653966,
        "lng": 19.11830141901638,
        "name": "Częstochowa"
    },
    {
        "lat": 54.36451994638047,
        "lng": 18.64580473617786,
        "name": "Gdańsk"
    },
    {
        "lat": 52.41391635101633,
        "lng": 16.931845710832814,
        "name": "Poznań"
    },
    {
        "lat": 53.016850513186284,
        "lng": 18.604181525471216,
        "name": "Toruń"
    },
    {
        "lat": 54.541025621722184,
        "lng": 18.524949921520708,
        "name": "Gdynia"
    },
    {
        "lat": 51.315313230026035,
        "lng": 22.606483789824047,
        "name": "Lublin"
    },
    {
        "lat": 53.835969079031415,
        "lng": 20.475017464328243,
        "name": "Dywity"
    },
    {
        "lat": 53.986715221744525,
        "lng": 20.39720594995499,
        "name": "Dobre Miasto"
    },
    {
        "lat": 54.01076187804673,
        "lng": 20.081378370435193,
        "name": "Miłakowo"
    }
]
